{
  "crawled_at": "2026-03-01T16:36:41.216937",
  "total": 141,
  "places": [
    {
      "place_id": "1396409942",
      "place_name": "셜록홈즈 분당야탑점",
      "category_name": "가정,생활 > 여가시설 > 방탈출카페",
      "category_group_code": "",
      "address": "경기 성남시 분당구 야탑동 353-3",
      "road_address": "경기 성남시 분당구 양현로310번길 25",
      "phone": "031-706-3600",
      "website_url": "http://place.map.kakao.com/1396409942",
      "lat": 37.4116097380947,
      "lng": 127.12704904689,
      "distance_m": 1120
    },
    {
      "place_id": "657876723",
      "place_name": "씨이스케이프",
      "category_name": "가정,생활 > 여가시설 > 방탈출카페",
      "category_group_code": "",
      "address": "경기 성남시 중원구 성남동 3429",
      "road_address": "경기 성남시 중원구 제일로35번길 56",
      "phone": "010-9658-9744",
      "website_url": "http://place.map.kakao.com/657876723",
      "lat": 37.4326022612831,
      "lng": 127.131427780657,
      "distance_m": 1726
    },
    {
      "place_id": "1678997732",
      "place_name": "넥스트에디션 부천점",
      "category_name": "가정,생활 > 여가시설 > 방탈출카페",
      "category_group_code": "",
      "address": "경기 부천시 원미구 심곡동 175-9",
      "road_address": "경기 부천시 원미구 부천로9번길 24",
      "phone": "0507-457-5485",
      "website_url": "http://place.map.kakao.com/1678997732",
      "lat": 37.4855100361272,
      "lng": 126.781751063026,
      "distance_m": 1949
    },
    {
      "place_id": "1757443413",
      "place_name": "코난방탈출 구로디지털단지역점",
      "category_name": "가정,생활 > 여가시설 > 방탈출카페",
      "category_group_code": "",
      "address": "서울 구로구 구로동 1124-54",
      "road_address": "서울 구로구 디지털로32나길 17-12",
      "phone": "02-830-6224",
      "website_url": "http://place.map.kakao.com/1757443413",
      "lat": 37.4844879940488,
      "lng": 126.899904735861,
      "distance_m": 1830
    },
    {
      "place_id": "628138029",
      "place_name": "룸엘이스케이프",
      "category_name": "음식점 > 카페 > 테마카페",
      "category_group_code": "CE7",
      "address": "서울 관악구 신림동 75-42",
      "road_address": "서울 관악구 신림로 322-4",
      "phone": "02-882-1215",
      "website_url": "http://place.map.kakao.com/628138029",
      "lat": 37.4830826871443,
      "lng": 126.930384165518,
      "distance_m": 1909
    },
    {
      "place_id": "880372928",
      "place_name": "더파인더 방탈출",
      "category_name": "가정,생활 > 여가시설 > 방탈출카페",
      "category_group_code": "",
      "address": "서울 관악구 봉천동 853-2",
      "road_address": "서울 관악구 관악로16길 13",
      "phone": "010-5901-5100",
      "website_url": "http://place.map.kakao.com/880372928",
      "lat": 37.4804180312595,
      "lng": 126.953453156798,
      "distance_m": 1820
    },
    {
      "place_id": "763904207",
      "place_name": "월투월방탈출",
      "category_name": "가정,생활 > 여가시설 > 방탈출카페",
      "category_group_code": "",
      "address": "서울 관악구 봉천동 1601-2",
      "road_address": "서울 관악구 남부순환로226길 9",
      "phone": "02-875-3690",
      "website_url": "http://place.map.kakao.com/763904207",
      "lat": 37.4802128489705,
      "lng": 126.954086418865,
      "distance_m": 1841
    },
    {
      "place_id": "1092766492",
      "place_name": "버스티드",
      "category_name": "가정,생활 > 여가시설 > 방탈출카페",
      "category_group_code": "",
      "address": "경기 부천시 원미구 심곡동 404-6",
      "road_address": "경기 부천시 원미구 부일로445번길 22",
      "phone": "010-5863-3207",
      "website_url": "http://place.map.kakao.com/1092766492",
      "lat": 37.4873523036542,
      "lng": 126.779652771683,
      "distance_m": 1777
    },
    {
      "place_id": "59939450",
      "place_name": "꿈소풍 부천점",
      "category_name": "가정,생활 > 여가시설 > 방탈출카페",
      "category_group_code": "",
      "address": "경기 부천시 원미구 심곡동 379-1",
      "road_address": "경기 부천시 원미구 부일로459번길 33",
      "phone": "",
      "website_url": "http://place.map.kakao.com/59939450",
      "lat": 37.487585419253,
      "lng": 126.781461217969,
      "distance_m": 1939
    },
    {
      "place_id": "1363823824",
      "place_name": "이스케이프시티 부천신중동점",
      "category_name": "가정,생활 > 여가시설 > 방탈출카페",
      "category_group_code": "",
      "address": "경기 부천시 원미구 중동 1138-1",
      "road_address": "경기 부천시 원미구 중동로248번길 105",
      "phone": "070-5044-7345",
      "website_url": "http://place.map.kakao.com/1363823824",
      "lat": 37.5012435828934,
      "lng": 126.774654035062,
      "distance_m": 1971
    },
    {
      "place_id": "1735229345",
      "place_name": "룸엘이스케이프 당곡점",
      "category_name": "가정,생활 > 여가시설 > 방탈출카페",
      "category_group_code": "",
      "address": "서울 관악구 봉천동 971-1",
      "road_address": "서울 관악구 보라매로 4",
      "phone": "0507-1309-4047",
      "website_url": "http://place.map.kakao.com/1735229345",
      "lat": 37.489957734035,
      "lng": 126.927971561206,
      "distance_m": 966
    },
    {
      "place_id": "190103388",
      "place_name": "도어이스케이프 이수역점",
      "category_name": "음식점 > 카페 > 테마카페",
      "category_group_code": "CE7",
      "address": "서울 동작구 사당동 139-88",
      "road_address": "서울 동작구 동작대로27가길 14",
      "phone": "02-534-9745",
      "website_url": "http://place.map.kakao.com/190103388",
      "lat": 37.48690753604882,
      "lng": 126.98104948778209,
      "distance_m": 1889
    },
    {
      "place_id": "916422770",
      "place_name": "키이스케이프 우주라이크점",
      "category_name": "음식점 > 카페 > 테마카페",
      "category_group_code": "CE7",
      "address": "서울 강남구 역삼동 827-25",
      "road_address": "서울 강남구 테헤란로6길 46",
      "phone": "010-8882-6082",
      "website_url": "http://place.map.kakao.com/916422770",
      "lat": 37.4956788806596,
      "lng": 127.031448411152,
      "distance_m": 1645
    },
    {
      "place_id": "1871864524",
      "place_name": "겟어웨이방탈출카페",
      "category_name": "가정,생활 > 여가시설 > 방탈출카페",
      "category_group_code": "",
      "address": "서울 강남구 역삼동 830-38",
      "road_address": "서울 강남구 역삼로5길 22",
      "phone": "02-2051-1536",
      "website_url": "http://place.map.kakao.com/1871864524",
      "lat": 37.4953453624502,
      "lng": 127.03199106777,
      "distance_m": 1646
    },
    {
      "place_id": "400448256",
      "place_name": "키이스케이프 강남 더오름",
      "category_name": "음식점 > 카페 > 테마카페",
      "category_group_code": "CE7",
      "address": "서울 강남구 역삼동 827-37",
      "road_address": "서울 강남구 테헤란로6길 30",
      "phone": "010-3776-6082",
      "website_url": "http://place.map.kakao.com/400448256",
      "lat": 37.4966142182906,
      "lng": 127.03109824138642,
      "distance_m": 1709
    },
    {
      "place_id": "123477337",
      "place_name": "파라박스",
      "category_name": "가정,생활 > 여가시설 > 방탈출카페",
      "category_group_code": "",
      "address": "서울 강남구 역삼동 827-50",
      "road_address": "서울 강남구 테헤란로8길 28-4",
      "phone": "",
      "website_url": "http://place.map.kakao.com/123477337",
      "lat": 37.4970033258976,
      "lng": 127.031577883554,
      "distance_m": 1769
    },
    {
      "place_id": "1872221698",
      "place_name": "후즈데어",
      "category_name": "가정,생활 > 여가시설 > 방탈출카페",
      "category_group_code": "",
      "address": "서울 서초구 서초동 1307-19",
      "road_address": "서울 서초구 서초대로77길 27",
      "phone": "",
      "website_url": "http://place.map.kakao.com/1872221698",
      "lat": 37.5001249784373,
      "lng": 127.025502882806,
      "distance_m": 1854
    },
    {
      "place_id": "1478483341",
      "place_name": "비트포비아 던전루나",
      "category_name": "가정,생활 > 여가시설 > 방탈출카페",
      "category_group_code": "",
      "address": "서울 강남구 역삼동 819-3",
      "road_address": "서울 강남구 강남대로94길 20",
      "phone": "02-555-1008",
      "website_url": "http://place.map.kakao.com/1478483341",
      "lat": 37.4994276866333,
      "lng": 127.029029883925,
      "distance_m": 1889
    },
    {
      "place_id": "436025860",
      "place_name": "비트포비아 던전스텔라",
      "category_name": "가정,생활 > 여가시설 > 방탈출카페",
      "category_group_code": "",
      "address": "서울 강남구 역삼동 828-28",
      "road_address": "서울 강남구 테헤란로14길 34",
      "phone": "02-568-0651",
      "website_url": "http://place.map.kakao.com/436025860",
      "lat": 37.4971739503309,
      "lng": 127.033631585443,
      "distance_m": 1895
    },
    {
      "place_id": "1213158520",
      "place_name": "코드헌터 강남점",
      "category_name": "가정,생활 > 여가시설 > 방탈출카페",
      "category_group_code": "",
      "address": "서울 강남구 역삼동 817-17",
      "road_address": "서울 강남구 강남대로96길 13",
      "phone": "010-3941-1507",
      "website_url": "http://place.map.kakao.com/1213158520",
      "lat": 37.4999640092052,
      "lng": 127.028103888029,
      "distance_m": 1911
    },
    {
      "place_id": "2006661572",
      "place_name": "쿠쿠룸190000",
      "category_name": "가정,생활 > 여가시설 > 방탈출카페",
      "category_group_code": "",
      "address": "서울 강남구 역삼동 817-17",
      "road_address": "서울 강남구 강남대로96길 13",
      "phone": "010-5889-0279",
      "website_url": "http://place.map.kakao.com/2006661572",
      "lat": 37.4999640094742,
      "lng": 127.02810275713385,
      "distance_m": 1911
    },
    {
      "place_id": "260184665",
      "place_name": "초상화",
      "category_name": "가정,생활 > 여가시설 > 방탈출카페",
      "category_group_code": "",
      "address": "서울 강남구 역삼동 817-18",
      "road_address": "서울 강남구 강남대로96길 15",
      "phone": "070-8722-0206",
      "website_url": "http://place.map.kakao.com/260184665",
      "lat": 37.5000874176391,
      "lng": 127.028227202109,
      "distance_m": 1928
    },
    {
      "place_id": "1405262610",
      "place_name": "키이스케이프 강남점",
      "category_name": "음식점 > 카페 > 테마카페",
      "category_group_code": "CE7",
      "address": "서울 강남구 역삼동 817-21",
      "road_address": "서울 강남구 강남대로96길 17",
      "phone": "010-7456-6082",
      "website_url": "http://place.map.kakao.com/1405262610",
      "lat": 37.5001035869388,
      "lng": 127.028430769789,
      "distance_m": 1936
    },
    {
      "place_id": "27367643",
      "place_name": "미스터리룸 이스케이프 강남점",
      "category_name": "가정,생활 > 여가시설 > 방탈출카페",
      "category_group_code": "",
      "address": "서울 서초구 서초동 1308-10",
      "road_address": "서울 서초구 서초대로77길 37",
      "phone": "02-536-2564",
      "website_url": "http://place.map.kakao.com/27367643",
      "lat": 37.5009945342165,
      "lng": 127.025106228726,
      "distance_m": 1939
    },
    {
      "place_id": "874592991",
      "place_name": "프랭크의골동품가게",
      "category_name": "가정,생활 > 여가시설 > 방탈출카페",
      "category_group_code": "",
      "address": "서울 강남구 역삼동 817-22",
      "road_address": "서울 강남구 강남대로96길 19",
      "phone": "010-5576-4594",
      "website_url": "http://place.map.kakao.com/874592991",
      "lat": 37.500157617287,
      "lng": 127.028555189115,
      "distance_m": 1946
    },
    {
      "place_id": "1030963843",
      "place_name": "마피아카페 강남1호점",
      "category_name": "가정,생활 > 여가시설 > 방탈출카페",
      "category_group_code": "",
      "address": "서울 강남구 역삼동 817-22",
      "road_address": "서울 강남구 강남대로96길 19",
      "phone": "0503-7151-1404",
      "website_url": "http://place.map.kakao.com/1030963843",
      "lat": 37.5001639237822,
      "lng": 127.028557453314,
      "distance_m": 1947
    },
    {
      "place_id": "1277196871",
      "place_name": "에피소드방탈출 강남점",
      "category_name": "가정,생활 > 여가시설 > 방탈출카페",
      "category_group_code": "",
      "address": "서울 강남구 역삼동 817",
      "road_address": "서울 강남구 강남대로98길 8",
      "phone": "070-8677-7919",
      "website_url": "http://place.map.kakao.com/1277196871",
      "lat": 37.5005363156219,
      "lng": 127.027390501933,
      "distance_m": 1948
    },
    {
      "place_id": "298789057",
      "place_name": "키이스케이프 스테이션",
      "category_name": "가정,생활 > 여가시설 > 방탈출카페",
      "category_group_code": "",
      "address": "서울 서초구 서초동 1308",
      "road_address": "서울 서초구 강남대로69길 11",
      "phone": "010-4445-6082",
      "website_url": "http://place.map.kakao.com/298789057",
      "lat": 37.5014740465421,
      "lng": 127.024258200466,
      "distance_m": 1975
    },
    {
      "place_id": "1466171651",
      "place_name": "플레이포인트랩 강남점",
      "category_name": "가정,생활 > 여가시설 > 방탈출카페",
      "category_group_code": "",
      "address": "서울 강남구 역삼동 619-28",
      "road_address": "서울 강남구 강남대로98길 11",
      "phone": "070-8872-0142",
      "website_url": "http://place.map.kakao.com/1466171651",
      "lat": 37.5008786768572,
      "lng": 127.027481099747,
      "distance_m": 1986
    },
    {
      "place_id": "99889048",
      "place_name": "키이스케이프 로그인1",
      "category_name": "음식점 > 카페 > 테마카페",
      "category_group_code": "CE7",
      "address": "서울 강남구 역삼동 817-35",
      "road_address": "서울 강남구 강남대로98길 16",
      "phone": "010-5544-7839",
      "website_url": "http://place.map.kakao.com/99889048",
      "lat": 37.500734399109,
      "lng": 127.027978646062,
      "distance_m": 1986
    },
    {
      "place_id": "320987184",
      "place_name": "키이스케이프 로그인2",
      "category_name": "음식점 > 카페 > 테마카페",
      "category_group_code": "CE7",
      "address": "서울 강남구 역삼동 817-35",
      "road_address": "서울 강남구 강남대로98길 16",
      "phone": "010-9444-6082",
      "website_url": "http://place.map.kakao.com/320987184",
      "lat": 37.5007434070249,
      "lng": 127.02798769668273,
      "distance_m": 1988
    },
    {
      "place_id": "1245109855",
      "place_name": "싸인이스케이프 강남시티점",
      "category_name": "음식점 > 카페 > 테마카페",
      "category_group_code": "CE7",
      "address": "서울 강남구 역삼동 637-20",
      "road_address": "서울 강남구 강남대로94길 67",
      "phone": "02-558-1008",
      "website_url": "http://place.map.kakao.com/1245109855",
      "lat": 37.5008233323577,
      "lng": 127.032536240863,
      "distance_m": 1980
    },
    {
      "place_id": "1568417037",
      "place_name": "라비린스 이스케이프",
      "category_name": "가정,생활 > 여가시설 > 방탈출카페",
      "category_group_code": "",
      "address": "경기 부천시 원미구 중동 1162",
      "road_address": "경기 부천시 원미구 석천로177번길 29",
      "phone": "",
      "website_url": "http://place.map.kakao.com/1568417037",
      "lat": 37.5032600928584,
      "lng": 126.76138088262,
      "distance_m": 381
    },
    {
      "place_id": "1620988252",
      "place_name": "셜록홈즈 부천중동점",
      "category_name": "가정,생활 > 여가시설 > 방탈출카페",
      "category_group_code": "",
      "address": "경기 부천시 원미구 중동 1163-5",
      "road_address": "경기 부천시 원미구 석천로183번길 11",
      "phone": "032-244-5391",
      "website_url": "http://place.map.kakao.com/1620988252",
      "lat": 37.5037614701541,
      "lng": 126.762483094516,
      "distance_m": 471
    },
    {
      "place_id": "192767471",
      "place_name": "판타스트릭 2호점",
      "category_name": "가정,생활 > 여가시설 > 방탈출카페",
      "category_group_code": "",
      "address": "서울 서초구 반포동 746-11",
      "road_address": "서울 서초구 사평대로 353",
      "phone": "010-4547-0481",
      "website_url": "http://place.map.kakao.com/192767471",
      "lat": 37.503955009797096,
      "lng": 127.02171661442179,
      "distance_m": 1969
    },
    {
      "place_id": "841734382",
      "place_name": "플레이더월드 강남점",
      "category_name": "가정,생활 > 여가시설 > 방탈출카페",
      "category_group_code": "",
      "address": "서울 서초구 서초동 1302-38",
      "road_address": "서울 서초구 사평대로56길 14",
      "phone": "070-4418-5588",
      "website_url": "http://place.map.kakao.com/841734382",
      "lat": 37.5028086477666,
      "lng": 127.023204597522,
      "distance_m": 421
    },
    {
      "place_id": "691418241",
      "place_name": "도어이스케이프 강남가든점",
      "category_name": "가정,생활 > 여가시설 > 방탈출카페",
      "category_group_code": "",
      "address": "서울 서초구 서초동 1302-44",
      "road_address": "서울 서초구 사평대로56길 10",
      "phone": "",
      "website_url": "http://place.map.kakao.com/691418241",
      "lat": 37.5030564627987,
      "lng": 127.023007890259,
      "distance_m": 431
    },
    {
      "place_id": "765336936",
      "place_name": "도어이스케이프 레드 신논현점",
      "category_name": "음식점 > 카페 > 테마카페",
      "category_group_code": "CE7",
      "address": "서울 서초구 서초동 1302-24",
      "road_address": "서울 서초구 사평대로 360",
      "phone": "02-533-9745",
      "website_url": "http://place.map.kakao.com/765336936",
      "lat": 37.5035737646368,
      "lng": 127.022358883649,
      "distance_m": 448
    },
    {
      "place_id": "1421844037",
      "place_name": "판타스트릭 강남1호점",
      "category_name": "가정,생활 > 여가시설 > 방탈출카페",
      "category_group_code": "",
      "address": "서울 서초구 반포동 746-3",
      "road_address": "서울 서초구 강남대로79길 39",
      "phone": "010-4547-0481",
      "website_url": "http://place.map.kakao.com/1421844037",
      "lat": 37.5042964284153,
      "lng": 127.022053739691,
      "distance_m": 510
    },
    {
      "place_id": "2058736611",
      "place_name": "도어이스케이프 블루 신논현점",
      "category_name": "음식점 > 카페 > 테마카페",
      "category_group_code": "CE7",
      "address": "서울 서초구 반포동 739-24",
      "road_address": "서울 서초구 사평대로53길 8-1",
      "phone": "070-7677-9745",
      "website_url": "http://place.map.kakao.com/2058736611",
      "lat": 37.50484066280082,
      "lng": 127.02190800475273,
      "distance_m": 563
    },
    {
      "place_id": "377197835",
      "place_name": "단편선 방탈출",
      "category_name": "가정,생활 > 여가시설 > 방탈출카페",
      "category_group_code": "",
      "address": "서울 강남구 역삼동 813-10",
      "road_address": "서울 강남구 봉은사로4길 36",
      "phone": "070-8866-0795",
      "website_url": "http://place.map.kakao.com/377197835",
      "lat": 37.502514154376954,
      "lng": 127.02682010271623,
      "distance_m": 664
    },
    {
      "place_id": "103606910",
      "place_name": "엑소더스 방탈출카페 강남1호점",
      "category_name": "가정,생활 > 여가시설 > 방탈출카페",
      "category_group_code": "",
      "address": "서울 강남구 역삼동 619-23",
      "road_address": "서울 강남구 봉은사로18길 80",
      "phone": "0507-1422-8581",
      "website_url": "http://place.map.kakao.com/103606910",
      "lat": 37.5015995130162,
      "lng": 127.027345653498,
      "distance_m": 673
    },
    {
      "place_id": "459642234",
      "place_name": "키이스케이프 메모리컴퍼니",
      "category_name": "가정,생활 > 여가시설 > 방탈출카페",
      "category_group_code": "",
      "address": "서울 강남구 역삼동 601-7",
      "road_address": "서울 강남구 봉은사로2길 7",
      "phone": "010-2637-6082",
      "website_url": "http://place.map.kakao.com/459642234",
      "lat": 37.5042308224732,
      "lng": 127.025684101999,
      "distance_m": 687
    },
    {
      "place_id": "2012633570",
      "place_name": "오늘의한페이지 방탈출카페",
      "category_name": "가정,생활 > 여가시설 > 방탈출카페",
      "category_group_code": "",
      "address": "서울 강남구 역삼동 811-6",
      "road_address": "서울 강남구 봉은사로6길 26",
      "phone": "02-558-6685",
      "website_url": "http://place.map.kakao.com/2012633570",
      "lat": 37.5033114706894,
      "lng": 127.027142707568,
      "distance_m": 730
    },
    {
      "place_id": "1908100709",
      "place_name": "스튜디오이에스씨",
      "category_name": "가정,생활 > 여가시설 > 방탈출카페",
      "category_group_code": "",
      "address": "서울 강남구 역삼동 619-11",
      "road_address": "서울 강남구 봉은사로18길 70",
      "phone": "070-7716-2532",
      "website_url": "http://place.map.kakao.com/1908100709",
      "lat": 37.5022337181255,
      "lng": 127.027786947444,
      "distance_m": 732
    },
    {
      "place_id": "225341934",
      "place_name": "라스트이스케이프",
      "category_name": "음식점 > 카페 > 테마카페",
      "category_group_code": "CE7",
      "address": "서울 강남구 역삼동 817-36",
      "road_address": "서울 강남구 강남대로98길 20",
      "phone": "02-567-3399",
      "website_url": "http://place.map.kakao.com/225341934",
      "lat": 37.50080281636902,
      "lng": 127.0282274714139,
      "distance_m": 733
    },
    {
      "place_id": "578778978",
      "place_name": "쿠쿠룸 1089",
      "category_name": "가정,생활 > 여가시설 > 방탈출카페",
      "category_group_code": "",
      "address": "서울 강남구 논현동 165-10",
      "road_address": "서울 강남구 봉은사로1길 27",
      "phone": "",
      "website_url": "http://place.map.kakao.com/578778978",
      "lat": 37.5064926421788,
      "lng": 127.024282444167,
      "distance_m": 814
    },
    {
      "place_id": "212176813",
      "place_name": "개꿀이스케이프",
      "category_name": "가정,생활 > 여가시설 > 방탈출카페",
      "category_group_code": "",
      "address": "서울 강남구 논현동 185-1",
      "road_address": "서울 강남구 강남대로118길 40",
      "phone": "",
      "website_url": "http://place.map.kakao.com/212176813",
      "lat": 37.5070778214757,
      "lng": 127.026488089458,
      "distance_m": 972
    },
    {
      "place_id": "45777628",
      "place_name": "셜록홈즈 잠실새내점",
      "category_name": "가정,생활 > 여가시설 > 방탈출카페",
      "category_group_code": "",
      "address": "서울 송파구 잠실동 191-1",
      "road_address": "서울 송파구 올림픽로10길 13-1",
      "phone": "02-422-7073",
      "website_url": "http://place.map.kakao.com/45777628",
      "lat": 37.5103081183422,
      "lng": 127.081336183778,
      "distance_m": 1149
    },
    {
      "place_id": "466116790",
      "place_name": "큐브이스케이프 잠실점",
      "category_name": "가정,생활 > 여가시설 > 방탈출카페",
      "category_group_code": "",
      "address": "서울 송파구 잠실동 177-5",
      "road_address": "서울 송파구 올림픽로8길 10",
      "phone": "02-412-9998",
      "website_url": "http://place.map.kakao.com/466116790",
      "lat": 37.5108343486279,
      "lng": 127.079952338133,
      "distance_m": 1202
    },
    {
      "place_id": "967129600",
      "place_name": "플레이포인트랩 잠실점",
      "category_name": "가정,생활 > 여가시설 > 방탈출카페",
      "category_group_code": "",
      "address": "서울 송파구 잠실동 180-9",
      "road_address": "서울 송파구 백제고분로7길 27",
      "phone": "02-416-6769",
      "website_url": "http://place.map.kakao.com/967129600",
      "lat": 37.5108834939654,
      "lng": 127.081866144247,
      "distance_m": 1219
    },
    {
      "place_id": "1682203426",
      "place_name": "찰리이스케이프",
      "category_name": "가정,생활 > 여가시설 > 방탈출카페",
      "category_group_code": "",
      "address": "서울 송파구 잠실동 185-8",
      "road_address": "서울 송파구 백제고분로7길 52-5",
      "phone": "",
      "website_url": "http://place.map.kakao.com/1682203426",
      "lat": 37.5104560886759,
      "lng": 127.084885590652,
      "distance_m": 1238
    },
    {
      "place_id": "1460924995",
      "place_name": "넥스트에디션 잠실점",
      "category_name": "가정,생활 > 여가시설 > 방탈출카페",
      "category_group_code": "",
      "address": "서울 송파구 잠실동 184-3",
      "road_address": "서울 송파구 올림픽로 118",
      "phone": "02-423-8255",
      "website_url": "http://place.map.kakao.com/1460924995",
      "lat": 37.5114119116348,
      "lng": 127.083823469131,
      "distance_m": 1310
    },
    {
      "place_id": "1796437751",
      "place_name": "머더파커 WOW잠실점",
      "category_name": "가정,생활 > 여가시설 > 방탈출카페",
      "category_group_code": "",
      "address": "서울 송파구 방이동 62-3",
      "road_address": "서울 송파구 올림픽로32길 22-23",
      "phone": "02-6953-6643",
      "website_url": "http://place.map.kakao.com/1796437751",
      "lat": 37.5135003212202,
      "lng": 127.108336730245,
      "distance_m": 1669
    },
    {
      "place_id": "27178625",
      "place_name": "패닉이스케이프 목동지점",
      "category_name": "음식점 > 카페 > 테마카페",
      "category_group_code": "CE7",
      "address": "서울 양천구 신정동 902-5",
      "road_address": "서울 양천구 신정중앙로 96",
      "phone": "02-6408-5044",
      "website_url": "http://place.map.kakao.com/27178625",
      "lat": 37.5261813339901,
      "lng": 126.86251646259,
      "distance_m": 1151
    },
    {
      "place_id": "1444854771",
      "place_name": "이스케이프 시티",
      "category_name": "음식점 > 카페 > 테마카페",
      "category_group_code": "CE7",
      "address": "서울 영등포구 영등포동3가 8-1",
      "road_address": "서울 영등포구 영중로8길 6",
      "phone": "070-8286-7355",
      "website_url": "http://place.map.kakao.com/1444854771",
      "lat": 37.5183637463384,
      "lng": 126.906180498142,
      "distance_m": 606
    },
    {
      "place_id": "1045036053",
      "place_name": "탈출브라더스",
      "category_name": "음식점 > 카페 > 테마카페",
      "category_group_code": "CE7",
      "address": "서울 영등포구 영등포동3가 23-8",
      "road_address": "서울 영등포구 영중로4길 25-1",
      "phone": "02-2676-0051",
      "website_url": "http://place.map.kakao.com/1045036053",
      "lat": 37.5178128652995,
      "lng": 126.909167462357,
      "distance_m": 835
    },
    {
      "place_id": "888192913",
      "place_name": "미션브레이크 CGV용산아이파크몰점",
      "category_name": "가정,생활 > 여가시설 > 방탈출카페",
      "category_group_code": "",
      "address": "서울 용산구 한강로3가 40-999",
      "road_address": "서울 용산구 한강대로23길 55",
      "phone": "02-2012-3783",
      "website_url": "http://place.map.kakao.com/888192913",
      "lat": 37.5298709510827,
      "lng": 126.964873937546,
      "distance_m": 1598
    },
    {
      "place_id": "401872428",
      "place_name": "시그널헌터 가로수길점",
      "category_name": "가정,생활 > 여가시설 > 방탈출카페",
      "category_group_code": "",
      "address": "서울 강남구 신사동 537",
      "road_address": "서울 강남구 강남대로152길 40",
      "phone": "02-517-6027",
      "website_url": "http://place.map.kakao.com/401872428",
      "lat": 37.5179807907309,
      "lng": 127.022544168338,
      "distance_m": 314
    },
    {
      "place_id": "522639283",
      "place_name": "코드이스케이프 가로수길점",
      "category_name": "음식점 > 카페 > 테마카페",
      "category_group_code": "CE7",
      "address": "서울 강남구 신사동 541-15",
      "road_address": "서울 강남구 가로수길 14",
      "phone": "02-541-7544",
      "website_url": "http://place.map.kakao.com/522639283",
      "lat": 37.518822164570295,
      "lng": 127.02338375716188,
      "distance_m": 433
    },
    {
      "place_id": "1000900386",
      "place_name": "이스케이프샾",
      "category_name": "가정,생활 > 여가시설 > 방탈출카페",
      "category_group_code": "",
      "address": "서울 강남구 신사동 531",
      "road_address": "서울 강남구 논현로175길 93",
      "phone": "02-6203-3667",
      "website_url": "http://place.map.kakao.com/1000900386",
      "lat": 37.5229274660933,
      "lng": 127.021640662948,
      "distance_m": 782
    },
    {
      "place_id": "751793807",
      "place_name": "마스터키 홍대상수점",
      "category_name": "가정,생활 > 여가시설 > 방탈출카페 > 마스터키",
      "category_group_code": "",
      "address": "서울 마포구 상수동 317-4",
      "road_address": "서울 마포구 독막로 65-1",
      "phone": "02-334-7757",
      "website_url": "http://place.map.kakao.com/751793807",
      "lat": 37.54802286167883,
      "lng": 126.92091099177382,
      "distance_m": 1780
    },
    {
      "place_id": "200411443",
      "place_name": "키이스케이프 홍대점",
      "category_name": "음식점 > 카페 > 테마카페",
      "category_group_code": "CE7",
      "address": "서울 마포구 서교동 408-27",
      "road_address": "서울 마포구 어울마당로 44-1",
      "phone": "010-7497-5517",
      "website_url": "http://place.map.kakao.com/200411443",
      "lat": 37.5489545131649,
      "lng": 126.920939429924,
      "distance_m": 1883
    },
    {
      "place_id": "848848018",
      "place_name": "오아시스 방탈출",
      "category_name": "가정,생활 > 여가시설 > 방탈출카페",
      "category_group_code": "",
      "address": "서울 마포구 서교동 403-21",
      "road_address": "서울 마포구 독막로9길 18",
      "phone": "010-5293-7612",
      "website_url": "http://place.map.kakao.com/848848018",
      "lat": 37.5490872979376,
      "lng": 126.920103009829,
      "distance_m": 1896
    },
    {
      "place_id": "28201117",
      "place_name": "레다스퀘어 방탈출카페",
      "category_name": "가정,생활 > 여가시설 > 방탈출카페",
      "category_group_code": "",
      "address": "서울 마포구 서교동 404-22",
      "road_address": "서울 마포구 독막로9길 23",
      "phone": "010-4979-5557",
      "website_url": "http://place.map.kakao.com/28201117",
      "lat": 37.5494431085065,
      "lng": 126.919979281003,
      "distance_m": 1936
    },
    {
      "place_id": "727312827",
      "place_name": "미스터리룸이스케이프 홍대2호점",
      "category_name": "음식점 > 카페 > 테마카페",
      "category_group_code": "CE7",
      "address": "서울 마포구 서교동 398-1",
      "road_address": "서울 마포구 독막로7길 41",
      "phone": "02-336-9010",
      "website_url": "http://place.map.kakao.com/727312827",
      "lat": 37.54964549757982,
      "lng": 126.91948566716717,
      "distance_m": 1958
    },
    {
      "place_id": "2022859547",
      "place_name": "크라임씬카페 퍼즐팩토리 성수점",
      "category_name": "가정,생활 > 여가시설 > 방탈출카페",
      "category_group_code": "",
      "address": "서울 성동구 성수동2가 302-22",
      "road_address": "서울 성동구 연무장3길 10-1",
      "phone": "",
      "website_url": "http://place.map.kakao.com/2022859547",
      "lat": 37.5445646229493,
      "lng": 127.051828124018,
      "distance_m": 1743
    },
    {
      "place_id": "1168819420",
      "place_name": "호텔레토",
      "category_name": "가정,생활 > 여가시설 > 방탈출카페",
      "category_group_code": "",
      "address": "서울 성동구 성수동2가 314-7",
      "road_address": "서울 성동구 연무장5길 18",
      "phone": "02-498-1133",
      "website_url": "http://place.map.kakao.com/1168819420",
      "lat": 37.5445865451555,
      "lng": 127.053183759172,
      "distance_m": 1819
    },
    {
      "place_id": "671151862",
      "place_name": "마스터키 건대점",
      "category_name": "가정,생활 > 여가시설 > 방탈출카페 > 마스터키",
      "category_group_code": "",
      "address": "서울 광진구 자양동 24-2",
      "road_address": "서울 광진구 동일로 96",
      "phone": "02-462-5655",
      "website_url": "http://place.map.kakao.com/671151862",
      "lat": 37.54112151252028,
      "lng": 127.0636817743366,
      "distance_m": 1063
    },
    {
      "place_id": "1385414031",
      "place_name": "플레이33",
      "category_name": "가정,생활 > 여가시설 > 방탈출카페",
      "category_group_code": "",
      "address": "서울 광진구 자양동 13-3",
      "road_address": "서울 광진구 아차산로26길 20",
      "phone": "",
      "website_url": "http://place.map.kakao.com/1385414031",
      "lat": 37.5405347092562,
      "lng": 127.065785880067,
      "distance_m": 1076
    },
    {
      "place_id": "138006966",
      "place_name": "더메이즈 건대점",
      "category_name": "가정,생활 > 여가시설 > 방탈출카페",
      "category_group_code": "",
      "address": "서울 광진구 자양동 10-1",
      "road_address": "서울 광진구 아차산로26길 13",
      "phone": "02-464-2577",
      "website_url": "http://place.map.kakao.com/138006966",
      "lat": 37.5406624362196,
      "lng": 127.06617070565,
      "distance_m": 1105
    },
    {
      "place_id": "746135486",
      "place_name": "플레이더월드 건대점",
      "category_name": "가정,생활 > 여가시설 > 방탈출카페",
      "category_group_code": "",
      "address": "서울 광진구 자양동 5-70",
      "road_address": "서울 광진구 동일로20길 98",
      "phone": "0507-1417-1154",
      "website_url": "http://place.map.kakao.com/746135486",
      "lat": 37.5398032110675,
      "lng": 127.068749759245,
      "distance_m": 1160
    },
    {
      "place_id": "1516889516",
      "place_name": "방탈출 뉴케이스",
      "category_name": "가정,생활 > 여가시설 > 방탈출카페",
      "category_group_code": "",
      "address": "서울 광진구 화양동 49-9",
      "road_address": "서울 광진구 아차산로 191",
      "phone": "02-498-1999",
      "website_url": "http://place.map.kakao.com/1516889516",
      "lat": 37.542047842624,
      "lng": 127.065145631576,
      "distance_m": 1204
    },
    {
      "place_id": "40766168",
      "place_name": "드림이스케이프",
      "category_name": "가정,생활 > 여가시설 > 방탈출카페",
      "category_group_code": "",
      "address": "서울 광진구 자양동 7-1",
      "road_address": "서울 광진구 아차산로 238",
      "phone": "02-462-2220",
      "website_url": "http://place.map.kakao.com/40766168",
      "lat": 37.5399829258444,
      "lng": 127.069578181958,
      "distance_m": 1225
    },
    {
      "place_id": "1271584354",
      "place_name": "황금열쇠 건대점",
      "category_name": "가정,생활 > 여가시설 > 방탈출카페",
      "category_group_code": "",
      "address": "서울 광진구 화양동 9-90",
      "road_address": "서울 광진구 아차산로29길 12",
      "phone": "02-6085-1989",
      "website_url": "http://place.map.kakao.com/1271584354",
      "lat": 37.541432391282,
      "lng": 127.068452533474,
      "distance_m": 1285
    },
    {
      "place_id": "259983085",
      "place_name": "단편선 성수",
      "category_name": "가정,생활 > 여가시설 > 방탈출카페",
      "category_group_code": "",
      "address": "서울 성동구 성수동2가 317-1",
      "road_address": "서울 성동구 아차산로 122",
      "phone": "",
      "website_url": "http://place.map.kakao.com/259983085",
      "lat": 37.5438637365951,
      "lng": 127.057471851749,
      "distance_m": 1335
    },
    {
      "place_id": "361428621",
      "place_name": "엑스크라임 건대2호점",
      "category_name": "가정,생활 > 여가시설 > 방탈출카페",
      "category_group_code": "",
      "address": "서울 광진구 화양동 9-47",
      "road_address": "서울 광진구 아차산로29길 38",
      "phone": "02-464-8788",
      "website_url": "http://place.map.kakao.com/361428621",
      "lat": 37.54247363803389,
      "lng": 127.0689830448787,
      "distance_m": 1407
    },
    {
      "place_id": "2016521022",
      "place_name": "이스케이프샾 건대점",
      "category_name": "가정,생활 > 여가시설 > 방탈출카페",
      "category_group_code": "",
      "address": "서울 광진구 화양동 3-39",
      "road_address": "서울 광진구 능동로 129-1",
      "phone": "02-466-3667",
      "website_url": "http://place.map.kakao.com/2016521022",
      "lat": 37.54258561763021,
      "lng": 127.07158116141953,
      "distance_m": 1558
    },
    {
      "place_id": "1331705130",
      "place_name": "레드런 천호점",
      "category_name": "가정,생활 > 여가시설 > 방탈출카페",
      "category_group_code": "",
      "address": "서울 강동구 천호동 454-64",
      "road_address": "서울 강동구 천호대로157길 17",
      "phone": "010-5723-4546",
      "website_url": "http://place.map.kakao.com/1331705130",
      "lat": 37.5385998135392,
      "lng": 127.127034504748,
      "distance_m": 961
    },
    {
      "place_id": "1857201893",
      "place_name": "큐브이스케이프 천호점",
      "category_name": "가정,생활 > 여가시설 > 방탈출카페",
      "category_group_code": "",
      "address": "서울 강동구 천호동 453-22",
      "road_address": "서울 강동구 천호대로157길 22",
      "phone": "02-472-0808",
      "website_url": "http://place.map.kakao.com/1857201893",
      "lat": 37.5386479906941,
      "lng": 127.127476994736,
      "distance_m": 990
    },
    {
      "place_id": "596589943",
      "place_name": "룸엘이스케이프 홍대1호점",
      "category_name": "음식점 > 카페 > 테마카페",
      "category_group_code": "CE7",
      "address": "서울 마포구 서교동 395-85",
      "road_address": "서울 마포구 잔다리로 39",
      "phone": "02-6953-8030",
      "website_url": "http://place.map.kakao.com/596589943",
      "lat": 37.551729166489444,
      "lng": 126.9189888828544,
      "distance_m": 1728
    },
    {
      "place_id": "153136502",
      "place_name": "도어이스케이프 홍대점",
      "category_name": "음식점 > 카페 > 테마카페",
      "category_group_code": "CE7",
      "address": "서울 마포구 서교동 403-1",
      "road_address": "서울 마포구 어울마당로 55-1",
      "phone": "02-336-3533",
      "website_url": "http://place.map.kakao.com/153136502",
      "lat": 37.550122148552,
      "lng": 126.920852191008,
      "distance_m": 1857
    },
    {
      "place_id": "1732671994",
      "place_name": "제로월드 홍대점",
      "category_name": "가정,생활 > 여가시설 > 방탈출카페",
      "category_group_code": "",
      "address": "서울 마포구 서교동 366-7",
      "road_address": "서울 마포구 잔다리로6길 20-9",
      "phone": "02-336-0275",
      "website_url": "http://place.map.kakao.com/1732671994",
      "lat": 37.5518807649622,
      "lng": 126.920655682478,
      "distance_m": 1875
    },
    {
      "place_id": "27413260",
      "place_name": "큐브이스케이프 홍대점",
      "category_name": "음식점 > 카페 > 테마카페",
      "category_group_code": "CE7",
      "address": "서울 마포구 서교동 355-17",
      "road_address": "서울 마포구 양화로16길 15",
      "phone": "02-323-5567",
      "website_url": "http://place.map.kakao.com/27413260",
      "lat": 37.5534232173959,
      "lng": 126.920572564647,
      "distance_m": 1914
    },
    {
      "place_id": "315548029",
      "place_name": "크라임씬카페 퍼즐 팩토리 홍대3호점",
      "category_name": "가정,생활 > 여가시설 > 방탈출카페",
      "category_group_code": "",
      "address": "서울 마포구 서교동 354-11",
      "road_address": "서울 마포구 양화로 120",
      "phone": "010-8204-3531",
      "website_url": "http://place.map.kakao.com/315548029",
      "lat": 37.5539249561403,
      "lng": 126.920398880481,
      "distance_m": 1918
    },
    {
      "place_id": "1654390566",
      "place_name": "엑스이스케이프 상상마당점",
      "category_name": "가정,생활 > 여가시설 > 방탈출카페",
      "category_group_code": "",
      "address": "서울 마포구 서교동 364-15",
      "road_address": "서울 마포구 어울마당로 70",
      "phone": "",
      "website_url": "http://place.map.kakao.com/1654390566",
      "lat": 37.5513479583469,
      "lng": 126.921529897567,
      "distance_m": 1938
    },
    {
      "place_id": "887263854",
      "place_name": "쇼룸404 방탈출카페",
      "category_name": "가정,생활 > 여가시설 > 방탈출카페",
      "category_group_code": "",
      "address": "서울 마포구 서교동 407-27",
      "road_address": "서울 마포구 잔다리로 5-1",
      "phone": "0503-7152-6936",
      "website_url": "http://place.map.kakao.com/887263854",
      "lat": 37.550519566668,
      "lng": 126.922326322184,
      "distance_m": 1992
    },
    {
      "place_id": "1351400084",
      "place_name": "서울이스케이프룸 홍대점",
      "category_name": "가정,생활 > 여가시설 > 방탈출카페",
      "category_group_code": "",
      "address": "서울 마포구 서교동 410-9",
      "road_address": "서울 마포구 와우산로17길 11",
      "phone": "02-333-6502",
      "website_url": "http://place.map.kakao.com/1351400084",
      "lat": 37.5501195691292,
      "lng": 126.922395768091,
      "distance_m": 1992
    },
    {
      "place_id": "678802397",
      "place_name": "싸인이스케이프 홍대점",
      "category_name": "가정,생활 > 여가시설 > 방탈출카페",
      "category_group_code": "",
      "address": "서울 마포구 서교동 407-2",
      "road_address": "서울 마포구 와우산로 65",
      "phone": "02-2039-9188",
      "website_url": "http://place.map.kakao.com/678802397",
      "lat": 37.5504189940142,
      "lng": 126.922843593932,
      "distance_m": 367
    },
    {
      "place_id": "1987907479",
      "place_name": "마스터키 노바홍대점",
      "category_name": "가정,생활 > 여가시설 > 방탈출카페 > 마스터키",
      "category_group_code": "",
      "address": "서울 마포구 서교동 363-24",
      "road_address": "서울 마포구 와우산로19길 9",
      "phone": "02-6952-1285",
      "website_url": "http://place.map.kakao.com/1987907479",
      "lat": 37.5511306576787,
      "lng": 126.922652740086,
      "distance_m": 419
    },
    {
      "place_id": "759455993",
      "place_name": "테라스페이스 홍대점",
      "category_name": "가정,생활 > 여가시설 > 방탈출카페",
      "category_group_code": "",
      "address": "서울 마포구 서교동 363-24",
      "road_address": "서울 마포구 와우산로19길 9",
      "phone": "02-6952-1285",
      "website_url": "http://place.map.kakao.com/759455993",
      "lat": 37.5511306576787,
      "lng": 126.922652740086,
      "distance_m": 419
    },
    {
      "place_id": "987374256",
      "place_name": "파노라마 홍대",
      "category_name": "가정,생활 > 여가시설 > 방탈출카페",
      "category_group_code": "",
      "address": "서울 마포구 서교동 362-6",
      "road_address": "서울 마포구 와우산로 77",
      "phone": "",
      "website_url": "http://place.map.kakao.com/987374256",
      "lat": 37.5513751089074,
      "lng": 126.923082522731,
      "distance_m": 463
    },
    {
      "place_id": "1541961243",
      "place_name": "해피앤딩 방탈출카페",
      "category_name": "음식점 > 카페 > 테마카페",
      "category_group_code": "CE7",
      "address": "서울 마포구 서교동 364-28",
      "road_address": "서울 마포구 와우산로21길 31-11",
      "phone": "070-8287-3217",
      "website_url": "http://place.map.kakao.com/1541961243",
      "lat": 37.5519646286865,
      "lng": 126.922115461609,
      "distance_m": 478
    },
    {
      "place_id": "1611418578",
      "place_name": "더챕터",
      "category_name": "가정,생활 > 여가시설 > 방탈출카페",
      "category_group_code": "",
      "address": "서울 마포구 서교동 362-4",
      "road_address": "서울 마포구 와우산로 79",
      "phone": "02-6015-8173",
      "website_url": "http://place.map.kakao.com/1611418578",
      "lat": 37.5515409344392,
      "lng": 126.923146857749,
      "distance_m": 481
    },
    {
      "place_id": "2070697879",
      "place_name": "지구별방탈출 홍대어드벤처점",
      "category_name": "가정,생활 > 여가시설 > 방탈출카페",
      "category_group_code": "",
      "address": "서울 마포구 서교동 364-26",
      "road_address": "서울 마포구 와우산로21길 31",
      "phone": "010-2737-4441",
      "website_url": "http://place.map.kakao.com/2070697879",
      "lat": 37.5522223228781,
      "lng": 126.922128773662,
      "distance_m": 505
    },
    {
      "place_id": "1548712469",
      "place_name": "방탈출둡두",
      "category_name": "가정,생활 > 여가시설 > 방탈출카페",
      "category_group_code": "",
      "address": "서울 마포구 서교동 358-123",
      "road_address": "서울 마포구 와우산로21길 20-5",
      "phone": "",
      "website_url": "http://place.map.kakao.com/1548712469",
      "lat": 37.5526281212411,
      "lng": 126.922660246071,
      "distance_m": 565
    },
    {
      "place_id": "1772415237",
      "place_name": "엑스이스케이프 홍대놀이터점",
      "category_name": "음식점 > 카페 > 테마카페",
      "category_group_code": "CE7",
      "address": "서울 마포구 서교동 358-123",
      "road_address": "서울 마포구 와우산로21길 20-5",
      "phone": "02-336-2425",
      "website_url": "http://place.map.kakao.com/1772415237",
      "lat": 37.552635335148885,
      "lng": 126.92266929214243,
      "distance_m": 566
    },
    {
      "place_id": "340303350",
      "place_name": "방탈출 이스케이프하우스",
      "category_name": "가정,생활 > 여가시설 > 방탈출카페",
      "category_group_code": "",
      "address": "서울 마포구 서교동 358-44",
      "road_address": "서울 마포구 와우산로21길 28-9",
      "phone": "",
      "website_url": "http://place.map.kakao.com/340303350",
      "lat": 37.5528260849967,
      "lng": 126.922270738876,
      "distance_m": 572
    },
    {
      "place_id": "289742025",
      "place_name": "호러스위치",
      "category_name": "가정,생활 > 여가시설 > 방탈출카페",
      "category_group_code": "",
      "address": "서울 마포구 서교동 358-121",
      "road_address": "서울 마포구 와우산로21길 20-11",
      "phone": "010-4378-4489",
      "website_url": "http://place.map.kakao.com/289742025",
      "lat": 37.552779516931636,
      "lng": 126.92270309395771,
      "distance_m": 582
    },
    {
      "place_id": "451924760",
      "place_name": "브레이크아웃이스케이프 홍대점",
      "category_name": "가정,생활 > 여가시설 > 방탈출카페",
      "category_group_code": "",
      "address": "서울 마포구 서교동 338-48",
      "road_address": "서울 마포구 와우산로 102",
      "phone": "02-336-3527",
      "website_url": "http://place.map.kakao.com/451924760",
      "lat": 37.5529394761745,
      "lng": 126.92484635985,
      "distance_m": 695
    },
    {
      "place_id": "399012410",
      "place_name": "지구별방탈출 홍대라스트시티점",
      "category_name": "가정,생활 > 여가시설 > 방탈출카페",
      "category_group_code": "",
      "address": "서울 마포구 서교동 486",
      "road_address": "서울 마포구 홍익로 10",
      "phone": "010-2815-4489",
      "website_url": "http://place.map.kakao.com/399012410",
      "lat": 37.55398906461822,
      "lng": 126.92332994446495,
      "distance_m": 727
    },
    {
      "place_id": "1825220691",
      "place_name": "스피키지",
      "category_name": "가정,생활 > 여가시설 > 방탈출카페",
      "category_group_code": "",
      "address": "서울 마포구 서교동 343-9",
      "road_address": "서울 마포구 와우산로 103",
      "phone": "02-332-3228",
      "website_url": "http://place.map.kakao.com/1825220691",
      "lat": 37.55335044458262,
      "lng": 126.92502475602444,
      "distance_m": 741
    },
    {
      "place_id": "2000674643",
      "place_name": "위드방탈출카페",
      "category_name": "가정,생활 > 여가시설 > 방탈출카페",
      "category_group_code": "",
      "address": "서울 서대문구 창천동 9-20",
      "road_address": "서울 서대문구 연세로 20",
      "phone": "02-312-8944",
      "website_url": "http://place.map.kakao.com/2000674643",
      "lat": 37.55762198800955,
      "lng": 126.93723562967803,
      "distance_m": 1095
    },
    {
      "place_id": "1521613397",
      "place_name": "나의신방",
      "category_name": "가정,생활 > 여가시설 > 방탈출카페",
      "category_group_code": "",
      "address": "서울 서대문구 창천동 57-3",
      "road_address": "서울 서대문구 연세로5가길 8-3",
      "phone": "010-2645-0315",
      "website_url": "http://place.map.kakao.com/1521613397",
      "lat": 37.557391667796665,
      "lng": 126.93617988815402,
      "distance_m": 1095
    },
    {
      "place_id": "690123759",
      "place_name": "룸익스케이프 인디고블루점",
      "category_name": "가정,생활 > 여가시설 > 방탈출카페",
      "category_group_code": "",
      "address": "서울 서대문구 창천동 57-33",
      "road_address": "서울 서대문구 연세로5가길 21",
      "phone": "",
      "website_url": "http://place.map.kakao.com/690123759",
      "lat": 37.557206548048185,
      "lng": 126.93541610802885,
      "distance_m": 1099
    },
    {
      "place_id": "17410648",
      "place_name": "이스케이프",
      "category_name": "음식점 > 술집 > 칵테일바",
      "category_group_code": "FD6",
      "address": "서울 서대문구 창천동 57-52",
      "road_address": "서울 서대문구 연세로5가길 16",
      "phone": "02-332-1889",
      "website_url": "http://place.map.kakao.com/17410648",
      "lat": 37.5574004999017,
      "lng": 126.935851669367,
      "distance_m": 1105
    },
    {
      "place_id": "273855007",
      "place_name": "방탈출ESC",
      "category_name": "가정,생활 > 여가시설 > 방탈출카페",
      "category_group_code": "",
      "address": "서울 서대문구 창천동 13-2",
      "road_address": "서울 서대문구 명물길 32",
      "phone": "02-313-2016",
      "website_url": "http://place.map.kakao.com/273855007",
      "lat": 37.5580361824726,
      "lng": 126.93844514714,
      "distance_m": 1122
    },
    {
      "place_id": "949587061",
      "place_name": "클레버타운",
      "category_name": "가정,생활 > 여가시설 > 방탈출카페",
      "category_group_code": "",
      "address": "서울 서대문구 창천동 31-20",
      "road_address": "서울 서대문구 연세로 30",
      "phone": "0507-1366-1928",
      "website_url": "http://place.map.kakao.com/949587061",
      "lat": 37.5582688494697,
      "lng": 126.937133227257,
      "distance_m": 1167
    },
    {
      "place_id": "97734177",
      "place_name": "마스터키프라임 신촌퍼플릭",
      "category_name": "가정,생활 > 여가시설 > 방탈출카페 > 마스터키",
      "category_group_code": "",
      "address": "서울 서대문구 창천동 52-130",
      "road_address": "서울 서대문구 연세로7안길 20",
      "phone": "02-336-1777",
      "website_url": "http://place.map.kakao.com/97734177",
      "lat": 37.5582257334808,
      "lng": 126.93570496289,
      "distance_m": 1196
    },
    {
      "place_id": "1336760672",
      "place_name": "방탈출크라임씬",
      "category_name": "가정,생활 > 여가시설 > 방탈출카페",
      "category_group_code": "",
      "address": "서울 서대문구 창천동 33-9",
      "road_address": "서울 서대문구 연세로 35",
      "phone": "",
      "website_url": "http://place.map.kakao.com/1336760672",
      "lat": 37.5586632956314,
      "lng": 126.936776384513,
      "distance_m": 1217
    },
    {
      "place_id": "187287513",
      "place_name": "방탈출토끼굴",
      "category_name": "가정,생활 > 여가시설 > 방탈출카페",
      "category_group_code": "",
      "address": "서울 마포구 창전동 6-137",
      "road_address": "서울 마포구 와우산로 122",
      "phone": "",
      "website_url": "http://place.map.kakao.com/187287513",
      "lat": 37.5531642816031,
      "lng": 126.927011073949,
      "distance_m": 1283
    },
    {
      "place_id": "1834149457",
      "place_name": "이스케이프시티 그랜드시티 신촌점",
      "category_name": "가정,생활 > 여가시설 > 방탈출카페",
      "category_group_code": "",
      "address": "서울 서대문구 창천동 53-73",
      "road_address": "서울 서대문구 연세로11길 39",
      "phone": "070-7633-7355",
      "website_url": "http://place.map.kakao.com/1834149457",
      "lat": 37.5589063271965,
      "lng": 126.934684639158,
      "distance_m": 1298
    },
    {
      "place_id": "27369058",
      "place_name": "리얼이스케이프챌린지",
      "category_name": "음식점 > 카페 > 테마카페",
      "category_group_code": "CE7",
      "address": "서울 마포구 서교동 339-5",
      "road_address": "서울 마포구 와우산로27길 21",
      "phone": "02-333-3882",
      "website_url": "http://place.map.kakao.com/27369058",
      "lat": 37.55417346486832,
      "lng": 126.92711760256185,
      "distance_m": 1328
    },
    {
      "place_id": "1462418270",
      "place_name": "플레이포인트랩 홍대점",
      "category_name": "가정,생활 > 여가시설 > 방탈출카페",
      "category_group_code": "",
      "address": "서울 마포구 서교동 340-4",
      "road_address": "서울 마포구 와우산로27길 39",
      "phone": "02-337-5575",
      "website_url": "http://place.map.kakao.com/1462418270",
      "lat": 37.554576594465566,
      "lng": 126.92628426391478,
      "distance_m": 1414
    },
    {
      "place_id": "367178846",
      "place_name": "스키피지",
      "category_name": "가정,생활 > 여가시설 > 방탈출카페",
      "category_group_code": "",
      "address": "서울 마포구 서교동 343-9",
      "road_address": "서울 마포구 와우산로 103",
      "phone": "02-332-3228",
      "website_url": "http://place.map.kakao.com/367178846",
      "lat": 37.5533585557131,
      "lng": 126.925028143004,
      "distance_m": 1450
    },
    {
      "place_id": "327610610",
      "place_name": "티켓투이스케이프",
      "category_name": "가정,생활 > 여가시설 > 방탈출카페",
      "category_group_code": "",
      "address": "서울 마포구 서교동 343-12",
      "road_address": "서울 마포구 와우산로29가길 83",
      "phone": "02-338-7788",
      "website_url": "http://place.map.kakao.com/327610610",
      "lat": 37.5536054339682,
      "lng": 126.925035817631,
      "distance_m": 1461
    },
    {
      "place_id": "280887856",
      "place_name": "시크릿코드 방탈출카페 홍대직영점",
      "category_name": "가정,생활 > 여가시설 > 방탈출카페",
      "category_group_code": "",
      "address": "서울 마포구 서교동 331-18",
      "road_address": "서울 마포구 어울마당로 144",
      "phone": "010-2185-6541",
      "website_url": "http://place.map.kakao.com/280887856",
      "lat": 37.5561656666695,
      "lng": 126.925825473947,
      "distance_m": 1546
    },
    {
      "place_id": "660859780",
      "place_name": "알카트래즈방탈출카페",
      "category_name": "가정,생활 > 여가시설 > 방탈출카페",
      "category_group_code": "",
      "address": "서울 중구 명동2가 50-4",
      "road_address": "서울 중구 명동길 38",
      "phone": "02-319-7316",
      "website_url": "http://place.map.kakao.com/660859780",
      "lat": 37.5636157548121,
      "lng": 126.984407536023,
      "distance_m": 1776
    },
    {
      "place_id": "1954089927",
      "place_name": "셜록홈즈 미사점",
      "category_name": "가정,생활 > 여가시설 > 방탈출카페",
      "category_group_code": "",
      "address": "경기 하남시 망월동 1111",
      "road_address": "경기 하남시 미사강변중앙로170번길 10",
      "phone": "0507-1335-0445",
      "website_url": "http://place.map.kakao.com/1954089927",
      "lat": 37.561460947972016,
      "lng": 127.19169703064144,
      "distance_m": 1816
    },
    {
      "place_id": "554838835",
      "place_name": "하이드앤 시크 홍대점",
      "category_name": "가정,생활 > 여가시설 > 방탈출카페",
      "category_group_code": "",
      "address": "서울 마포구 동교동 203-57",
      "road_address": "서울 마포구 월드컵북로6길 24-7",
      "phone": "02-333-5900",
      "website_url": "http://place.map.kakao.com/554838835",
      "lat": 37.5581586456178,
      "lng": 126.920255168717,
      "distance_m": 1903
    },
    {
      "place_id": "617331855",
      "place_name": "괴담저장소 한강대담력훈련",
      "category_name": "가정,생활 > 여가시설 > 방탈출카페",
      "category_group_code": "",
      "address": "서울 마포구 동교동 198-1",
      "road_address": "서울 마포구 월드컵북로4길 72",
      "phone": "",
      "website_url": "http://place.map.kakao.com/617331855",
      "lat": 37.5589622026099,
      "lng": 126.922766878316,
      "distance_m": 610
    },
    {
      "place_id": "969459474",
      "place_name": "이스케이퍼스 홍대1호점",
      "category_name": "가정,생활 > 여가시설 > 방탈출카페",
      "category_group_code": "",
      "address": "서울 마포구 동교동 147-31",
      "road_address": "서울 마포구 연희로1길 7",
      "phone": "010-5594-5216",
      "website_url": "http://place.map.kakao.com/969459474",
      "lat": 37.5595715925137,
      "lng": 126.926075619971,
      "distance_m": 727
    },
    {
      "place_id": "1719351380",
      "place_name": "필더블랭크",
      "category_name": "가정,생활 > 여가시설 > 방탈출카페",
      "category_group_code": "",
      "address": "서울 마포구 동교동 201-6",
      "road_address": "서울 마포구 동교로 187",
      "phone": "02-337-9001",
      "website_url": "http://place.map.kakao.com/1719351380",
      "lat": 37.55720474844449,
      "lng": 126.9219911731789,
      "distance_m": 774
    },
    {
      "place_id": "1078153820",
      "place_name": "차작가의 방탈출테마연구소",
      "category_name": "서비스,산업 > 전문대행 > 컨설팅",
      "category_group_code": "",
      "address": "서울 서대문구 연희동 712-25",
      "road_address": "서울 서대문구 홍연길 60",
      "phone": "",
      "website_url": "http://place.map.kakao.com/1078153820",
      "lat": 37.5759108787864,
      "lng": 126.930071430992,
      "distance_m": 1586
    },
    {
      "place_id": "462553617",
      "place_name": "셜록홈즈 종각점",
      "category_name": "가정,생활 > 여가시설 > 방탈출카페",
      "category_group_code": "",
      "address": "서울 종로구 관철동 12-23",
      "road_address": "서울 종로구 삼일대로17길 17",
      "phone": "02-725-0522",
      "website_url": "http://place.map.kakao.com/462553617",
      "lat": 37.5690580275726,
      "lng": 126.986493698008,
      "distance_m": 802
    },
    {
      "place_id": "1944665207",
      "place_name": "하이드앤시크 쌈지길점",
      "category_name": "가정,생활 > 여가시설 > 방탈출카페",
      "category_group_code": "",
      "address": "서울 종로구 관훈동 38",
      "road_address": "서울 종로구 인사동길 44",
      "phone": "010-3235-5900",
      "website_url": "http://place.map.kakao.com/1944665207",
      "lat": 37.574342155638014,
      "lng": 126.98477999829184,
      "distance_m": 1222
    },
    {
      "place_id": "458997744",
      "place_name": "에필로그",
      "category_name": "가정,생활 > 여가시설 > 방탈출카페",
      "category_group_code": "",
      "address": "서울 종로구 동숭동 1-47",
      "road_address": "서울 종로구 대학로8가길 48",
      "phone": "02-2088-8402",
      "website_url": "http://place.map.kakao.com/458997744",
      "lat": 37.5829268826698,
      "lng": 127.002422799811,
      "distance_m": 388
    },
    {
      "place_id": "203642029",
      "place_name": "덤앤더머 방탈출카페 대학로점",
      "category_name": "가정,생활 > 여가시설 > 방탈출카페",
      "category_group_code": "",
      "address": "서울 종로구 동숭동 1-37",
      "road_address": "서울 종로구 동숭길 143",
      "phone": "02-741-0955",
      "website_url": "http://place.map.kakao.com/203642029",
      "lat": 37.5832656559139,
      "lng": 127.002436396644,
      "distance_m": 421
    },
    {
      "place_id": "926754766",
      "place_name": "이스케이프시티 성신여대점",
      "category_name": "가정,생활 > 여가시설 > 방탈출카페",
      "category_group_code": "",
      "address": "서울 성북구 동선동1가 49",
      "road_address": "서울 성북구 보문로34길 43",
      "phone": "070-4065-7355",
      "website_url": "http://place.map.kakao.com/926754766",
      "lat": 37.5908254890579,
      "lng": 127.017676984818,
      "distance_m": 1970
    },
    {
      "place_id": "716654663",
      "place_name": "두잇이스케이프",
      "category_name": "가정,생활 > 여가시설 > 방탈출카페",
      "category_group_code": "",
      "address": "경기 구리시 수택동 414-20",
      "road_address": "경기 구리시 검배로6번길 23",
      "phone": "070-7719-7879",
      "website_url": "http://place.map.kakao.com/716654663",
      "lat": 37.5997568449555,
      "lng": 127.140381874446,
      "distance_m": 1847
    },
    {
      "place_id": "1560724472",
      "place_name": "방탈출 미로",
      "category_name": "가정,생활 > 여가시설 > 방탈출카페",
      "category_group_code": "",
      "address": "서울 은평구 갈현동 400-7",
      "road_address": "서울 은평구 연서로29길 16",
      "phone": "02-356-6446",
      "website_url": "http://place.map.kakao.com/1560724472",
      "lat": 37.6192591720085,
      "lng": 126.918543009124,
      "distance_m": 1824
    },
    {
      "place_id": "300855776",
      "place_name": "오늘 탈출",
      "category_name": "음식점 > 카페 > 테마카페",
      "category_group_code": "CE7",
      "address": "경기 고양시 일산동구 백석동 1330",
      "road_address": "경기 고양시 일산동구 호수로 336",
      "phone": "010-9253-6844",
      "website_url": "http://place.map.kakao.com/300855776",
      "lat": 37.63722298589963,
      "lng": 126.78756546103767,
      "distance_m": 1222
    },
    {
      "place_id": "164116124",
      "place_name": "에베레스트 이스케이프",
      "category_name": "가정,생활 > 여가시설 > 방탈출카페",
      "category_group_code": "",
      "address": "경기 고양시 일산동구 백석동 1283-1",
      "road_address": "경기 고양시 일산동구 일산로 67",
      "phone": "0507-1360-2059",
      "website_url": "http://place.map.kakao.com/164116124",
      "lat": 37.6442802717883,
      "lng": 126.789008168261,
      "distance_m": 1974
    },
    {
      "place_id": "870806933",
      "place_name": "마스터키 화정점",
      "category_name": "가정,생활 > 여가시설 > 방탈출카페 > 마스터키",
      "category_group_code": "",
      "address": "경기 고양시 덕양구 화정동 983-1",
      "road_address": "경기 고양시 덕양구 화신로272번길 29",
      "phone": "070-8820-8800",
      "website_url": "http://place.map.kakao.com/870806933",
      "lat": 37.632375063937936,
      "lng": 126.83123886844804,
      "distance_m": 1104
    },
    {
      "place_id": "4331171",
      "place_name": "큐브이스케이프 수유점",
      "category_name": "음식점 > 카페 > 테마카페",
      "category_group_code": "CE7",
      "address": "서울 강북구 수유동 229-46",
      "road_address": "서울 강북구 도봉로87길 11",
      "phone": "02-903-0706",
      "website_url": "http://place.map.kakao.com/4331171",
      "lat": 37.6383315131476,
      "lng": 127.024894047779,
      "distance_m": 1225
    },
    {
      "place_id": "911063716",
      "place_name": "더트랩 수유점",
      "category_name": "가정,생활 > 여가시설 > 방탈출카페",
      "category_group_code": "",
      "address": "서울 강북구 수유동 174-14",
      "road_address": "서울 강북구 도봉로 363",
      "phone": "02-6224-7776",
      "website_url": "http://place.map.kakao.com/911063716",
      "lat": 37.639938349142,
      "lng": 127.027251253028,
      "distance_m": 1471
    },
    {
      "place_id": "351145232",
      "place_name": "큐방탈출카페 일산점",
      "category_name": "가정,생활 > 여가시설 > 방탈출카페",
      "category_group_code": "",
      "address": "경기 고양시 일산동구 장항동 862-1",
      "road_address": "경기 고양시 일산동구 정발산로 23",
      "phone": "031-908-8006",
      "website_url": "http://place.map.kakao.com/351145232",
      "lat": 37.65669887975531,
      "lng": 126.77132353848808,
      "distance_m": 1727
    },
    {
      "place_id": "1436082735",
      "place_name": "미스터리담",
      "category_name": "가정,생활 > 여가시설 > 방탈출카페",
      "category_group_code": "",
      "address": "경기 고양시 일산동구 백석동 1268-2",
      "road_address": "경기 고양시 일산동구 강송로73번길 34",
      "phone": "010-2446-5967",
      "website_url": "http://place.map.kakao.com/1436082735",
      "lat": 37.6457168345738,
      "lng": 126.788726495336,
      "distance_m": 793
    },
    {
      "place_id": "1367009941",
      "place_name": "셜록홈즈 노원점",
      "category_name": "가정,생활 > 여가시설 > 방탈출카페",
      "category_group_code": "",
      "address": "서울 노원구 상계동 331-8",
      "road_address": "서울 노원구 노해로81길 12-20",
      "phone": "02-951-0522",
      "website_url": "http://place.map.kakao.com/1367009941",
      "lat": 37.6555652058527,
      "lng": 127.064006037472,
      "distance_m": 1331
    },
    {
      "place_id": "1252080396",
      "place_name": "할리갈리인더룸방탈출시즌2",
      "category_name": "가정,생활 > 여가시설 > 방탈출카페",
      "category_group_code": "",
      "address": "경기 고양시 일산동구 장항동 761",
      "road_address": "경기 고양시 일산동구 무궁화로 20-11",
      "phone": "031-902-9242",
      "website_url": "http://place.map.kakao.com/1252080396",
      "lat": 37.6618315734849,
      "lng": 126.767539424787,
      "distance_m": 695
    },
    {
      "place_id": "302959300",
      "place_name": "더도어즈이스케이프",
      "category_name": "음식점 > 카페 > 테마카페",
      "category_group_code": "CE7",
      "address": "경기 고양시 일산동구 장항동 736",
      "road_address": "경기 고양시 일산동구 고봉로 32-6",
      "phone": "031-911-2003",
      "website_url": "http://place.map.kakao.com/302959300",
      "lat": 37.66454693968043,
      "lng": 126.76562460238965,
      "distance_m": 707
    }
  ]
}